City_ID,City,Lat,Lng,Max Temp,Humidity,Cloudiness,Wind Speed,Country,Date
0,georgetown,5.4112,100.3354,28.97,79,20,1.03,MY,1684953084
1,isafjordur,66.0755,-23.124,6.02,49,100,6.17,IS,1684953092
2,pandan,14.0453,124.1694,26.89,84,65,1.62,PH,1684953093
3,waitangi,-43.9535,-176.5597,11.22,57,23,5.71,NZ,1684953093
4,st. john's,47.5649,-52.7093,12.38,80,20,3.09,CA,1684952905
5,mejit,10.2753,170.8646,27.25,80,100,6.81,MH,1684953094
6,adamstown,-25.066,-130.1015,24.06,73,100,4.37,PN,1684953094
7,tidjikja,18.5564,-11.4271,31.08,23,85,9.34,MR,1684953094
8,puerto armuelles,8.2833,-82.8667,30.99,71,92,2.2,PA,1684953095
9,kavaratti,10.5669,72.642,29.53,70,14,3.11,IN,1684953095
10,chonchi,-42.6128,-73.8092,7.56,85,100,3.96,CL,1684953095
11,saudarkrokur,65.7461,-19.6394,5.85,63,61,10.35,IS,1684953096
12,ilulissat,69.2167,-51.1,1.01,60,75,2.57,GL,1684953096
13,antonio enes,-16.2325,39.9086,23.3,74,0,3.67,MZ,1684953096
14,qaqortoq,60.7167,-46.0333,0.89,100,100,3.51,GL,1684953096
15,olinda,-8.0089,-34.8553,26.85,83,75,4.12,BR,1684953074
16,college,64.8569,-147.8028,16.72,51,75,1.03,US,1684953097
17,ribeira grande,38.5167,-28.7,19.22,68,40,6.71,PT,1684953097
18,port elizabeth,-33.918,25.5701,14.16,72,0,2.57,ZA,1684953098
19,saipan,15.1355,145.701,23.39,100,100,13.89,MP,1684953098
20,grytviken,-54.2811,-36.5092,0.73,66,95,4.93,GS,1684953098
21,papao,-17.75,-149.55,26.82,76,6,1.5,PF,1684953098
22,puerto natales,-51.7236,-72.4875,6.25,56,75,5.14,CL,1684953099
23,burutu,5.3509,5.5076,26.62,88,30,2.95,NG,1684953099
24,howrah,22.5892,88.3103,27.0,89,20,1.54,IN,1684953099
25,edinburgh of the seven seas,-37.0676,-12.3116,14.2,72,93,7.65,SH,1684953100
26,margaret river,-33.95,115.0667,13.85,71,100,5.31,AU,1684953100
27,port-aux-francais,-49.35,70.2167,7.17,97,97,4.32,TF,1684953100
28,blackmans bay,-43.0167,147.3167,16.52,57,16,5.36,AU,1684953100
29,cestos city,5.46,-9.5828,27.62,84,100,3.31,LR,1684953100
30,tukrah,32.5341,20.5791,20.83,69,0,8.17,LY,1684953101
31,longyearbyen,78.2186,15.6401,2.91,75,75,12.86,SJ,1684953101
32,katsuura,35.1333,140.3,17.47,65,89,2.38,JP,1684953101
33,iqaluit,63.7506,-68.5145,-2.15,86,100,2.57,CA,1684953101
34,port saint john's,-31.6229,29.5448,19.33,64,0,3.64,ZA,1684953101
35,hanceville,34.0607,-86.7675,25.84,52,99,3.67,US,1684953101
36,shanyang,26.6702,119.2051,16.12,98,68,0.58,CN,1684953101
37,nemuro,43.3236,145.575,6.31,72,100,3.46,JP,1684953102
38,kushiro,42.975,144.3747,7.62,82,69,1.72,JP,1684953102
39,mabaruma,8.2,-59.7833,31.0,70,75,3.09,GY,1684953102
40,tura,25.5198,90.2201,21.79,76,4,1.81,IN,1684953102
41,bethel,41.3712,-73.414,26.04,51,0,3.6,US,1684953102
42,lata,40.1629,-8.3327,21.01,59,10,1.76,PT,1684953102
43,faya-largeau,17.9257,19.1043,38.24,10,39,3.39,TD,1684953102
44,tiksi,71.6872,128.8694,-10.53,99,85,1.09,RU,1684953103
45,papatowai,-46.5619,169.4708,9.75,89,100,2.87,NZ,1684953103
46,stanley,54.868,-1.6985,14.33,69,100,1.03,GB,1684953103
47,albany,42.6001,-73.9662,23.71,64,70,6.5,US,1684953002
48,hamilton,39.1834,-84.5333,29.56,40,75,4.12,US,1684953103
49,vereshchagino,58.0789,54.6557,16.61,54,14,2.46,RU,1684953103
50,newman,37.3138,-121.0208,23.9,10,0,2.79,US,1684953103
51,tralee,52.2704,-9.7026,13.05,84,18,3.11,IE,1684953103
52,muana,-1.5283,-49.2167,29.68,71,14,2.14,BR,1684953103
53,yellowknife,62.456,-114.3525,11.29,76,75,3.6,CA,1684953103
54,bodo,67.28,14.405,8.02,76,75,11.83,NO,1684953103
55,island harbour,50.724,-1.2758,20.04,79,100,3.67,GB,1684953104
56,ushuaia,-54.8,-68.3,5.79,75,100,4.63,AR,1684953104
57,kapa'a,22.0752,-159.319,25.18,81,40,6.17,US,1684953104
58,kristiansund,63.1115,7.732,10.36,57,40,11.83,NO,1684953104
59,fortuna,40.5982,-124.1573,15.75,79,100,4.63,US,1684953104
60,iskateley,67.6803,53.1512,13.87,90,24,4.71,RU,1684953104
61,puerto ayora,-0.7393,-90.3518,30.98,85,16,2.68,EC,1684953104
62,olonkinbyen,70.9221,-8.7187,-1.5,94,100,16.99,SJ,1684953104
63,san patricio,28.017,-97.5169,32.31,52,8,3.81,US,1684953104
64,timimoun,29.2639,0.231,32.21,12,0,1.54,DZ,1684953104
65,laguna,38.421,-121.4238,22.27,54,0,3.09,US,1684953094
66,geraldton,-28.7667,114.6,12.23,82,1,4.63,AU,1684952908
67,bamboo flat,11.7,92.7167,28.05,83,40,1.03,IN,1684953105
68,jamestown,42.097,-79.2353,18.34,69,100,4.63,US,1684952826
69,tolanaro,-25.0319,46.9987,19.04,94,75,0.0,MG,1684953105
70,zapadnaya dvina,56.259,32.0745,12.3,91,5,1.68,RU,1684953105
71,port alfred,-33.5906,26.891,20.11,50,26,3.95,ZA,1684953105
72,kingston,17.997,-76.7936,31.8,68,20,4.12,JM,1684952969
73,dingzhou,38.5131,114.9956,19.06,53,100,5.95,CN,1684953105
74,sarande,39.8756,20.0053,20.85,76,100,0.85,AL,1684953105
75,thompson,55.7435,-97.8558,16.09,31,75,4.63,CA,1684953105
76,nova sintra,14.8667,-24.7167,20.23,81,100,7.44,CV,1684953106
77,el ejido,36.7763,-2.8146,19.86,75,99,3.07,ES,1684953106
78,cadale,2.7603,46.3222,27.14,80,47,6.79,SO,1684953106
79,saldanha,-33.0117,17.9442,14.03,89,100,7.88,ZA,1684953106
80,aykhal,66.0,111.5,-1.94,97,98,4.36,RU,1684953106
81,grand rapids,42.9634,-85.6681,20.93,61,40,7.2,US,1684953091
82,changji,44.0167,87.3167,20.44,30,0,2.0,CN,1684953106
83,qarqaraly,49.4058,75.4742,12.07,46,84,1.53,KZ,1684953106
84,mount gambier,-37.8333,140.7667,14.37,70,100,5.44,AU,1684953106
85,enewetak,11.3474,162.3373,27.8,76,100,6.85,MH,1684953106
86,yarmouth,41.7057,-70.2286,21.47,77,75,4.12,US,1684953106
87,hawaiian paradise park,19.5933,-154.9731,22.8,93,100,2.06,US,1684953106
88,lewiston orchards,46.3804,-116.9754,20.95,39,0,1.54,US,1684953106
89,saint-joseph,-21.3667,55.6167,21.37,85,100,3.98,RE,1684953107
90,mombetsu,44.3525,143.3525,8.52,72,0,3.04,JP,1684953107
91,kabwe,-14.4469,28.4464,17.15,56,0,2.74,ZM,1684953107
92,antsiranana,-12.2787,49.2917,23.68,84,29,1.44,MG,1684953107
93,flying fish cove,-10.4217,105.6791,25.82,83,75,5.66,CX,1684953107
94,bardai,11.65,7.2333,28.46,55,89,6.76,NG,1684953107
95,port mathurin,-19.6833,63.4167,25.01,69,30,6.73,MU,1684953107
96,diamantina,-18.2494,-43.6003,19.4,67,74,4.15,BR,1684953107
97,weno,7.4515,151.8468,25.97,89,100,0.0,FM,1684953107
98,port macquarie,-31.4333,152.9167,6.05,71,5,2.44,AU,1684953107
99,anadyr,64.75,177.4833,2.28,87,75,4.0,RU,1684953107
100,wailua homesteads,22.0669,-159.378,24.44,81,40,6.17,US,1684953108
101,keflavik,64.0049,-22.5624,8.24,57,40,13.89,IS,1684953108
102,preston,53.7667,-2.7167,17.4,72,20,7.2,GB,1684953108
103,prince albert,53.2001,-105.7677,15.97,59,100,7.72,CA,1684953108
104,baissa,7.2333,10.6333,24.05,97,100,2.09,NG,1684953108
105,guiyang,26.5833,106.7167,20.27,83,100,4.0,CN,1684953108
106,bredasdorp,-34.5322,20.0403,13.03,71,0,2.2,ZA,1684953108
107,atafu village,-8.5421,-172.5159,27.0,77,24,1.7,TK,1684953108
108,leninskoye,41.7589,69.3864,14.25,42,0,3.51,KZ,1684953108
109,bay roberts,47.5999,-53.2648,11.48,76,0,1.79,CA,1684953072
110,arraial do cabo,-22.9661,-42.0278,25.98,69,0,6.17,BR,1684953108
111,sisimiut,66.9395,-53.6735,1.6,67,22,1.21,GL,1684953078
112,yuzhno-kurilsk,44.0306,145.8556,6.02,74,100,1.2,RU,1684953109
113,dudinka,69.4058,86.1778,-0.53,92,100,1.0,RU,1684953109
114,sabirabad,40.0095,48.4752,25.25,51,50,3.33,AZ,1684953109
115,puerto leguizamo,-0.1934,-74.7819,30.17,63,59,1.64,CO,1684953109
116,padre bernardo,-15.35,-48.5,30.13,28,1,1.68,BR,1684953109
117,lihue,21.9789,-159.3672,24.77,81,40,6.17,US,1684953109
118,remire-montjoly,4.9167,-52.2667,29.02,70,20,5.14,GF,1684953109
119,usinsk,65.9939,57.5281,15.33,65,58,6.25,RU,1684953109
120,ulsteinvik,62.3432,5.8487,10.07,76,67,8.94,NO,1684953109
121,lafollette,36.3829,-84.1199,27.45,30,0,3.26,US,1684953109
122,bilibino,68.0546,166.4372,3.42,71,40,1.36,RU,1684953109
123,punta arenas,-53.15,-70.9167,5.01,87,75,4.63,CL,1684953110
124,hermanus,-34.4187,19.2345,15.67,64,3,4.88,ZA,1684953110
125,podporozh'ye,60.9112,34.1706,14.58,76,90,1.11,RU,1684953110
126,ust-nera,64.5667,143.2,1.01,97,100,2.02,RU,1684953110
127,uturoa,-16.7333,-151.4333,27.28,67,34,0.59,PF,1684953110
128,zhangye,38.9342,100.4517,13.26,26,100,2.53,CN,1684953110
129,kozlovka,55.8428,48.2492,18.84,51,81,4.54,RU,1684953110
130,la toma,-33.0526,-65.6238,21.05,59,75,4.49,AR,1684953110
131,allapalli,19.4167,80.0667,32.48,35,23,2.16,IN,1684953110
132,muzo,5.5353,-74.1078,28.51,65,99,1.97,CO,1684953110
133,mbandaka,0.0487,18.2603,25.09,79,13,1.46,CD,1684953110
134,shache,38.4167,77.2406,19.51,38,100,7.78,CN,1684953110
135,vorkuta,67.5,64.0,9.9,74,0,3.34,RU,1684953111
136,eenhana,-17.4667,16.3333,20.93,25,2,1.16,NA,1684953111
137,nuku'alofa,-21.1333,-175.2,22.19,73,75,2.06,TO,1684953111
138,sanctuary point,-35.1114,150.629,13.44,50,47,4.42,AU,1684953111
139,upata,8.0086,-62.3989,31.22,55,100,3.06,VE,1684953111
140,tazacorte,28.629,-17.9293,20.54,76,75,3.13,ES,1684953111
141,trairi,-3.2778,-39.2689,28.1,73,88,4.96,BR,1684953111
142,new norfolk,-42.7826,147.0587,17.18,54,20,3.13,AU,1684953111
143,al muwayh,22.4333,41.7583,26.76,35,26,4.41,SA,1684953111
144,kloulklubed,7.0419,134.2556,28.89,75,97,8.24,PW,1684953111
145,yokadouma,3.5167,15.05,27.47,55,95,0.41,CM,1684953112
146,robore,-18.3333,-59.75,33.05,58,20,5.14,BO,1684953112
147,minas de marcona,-15.2119,-75.1103,19.88,61,97,5.82,PE,1684953112
148,vadso,70.0744,29.7487,12.49,58,0,12.35,NO,1684953112
149,afaahiti,-17.75,-149.2833,25.93,76,24,1.58,PF,1684953112
150,kapuskasing,49.4169,-82.4331,9.0,40,0,3.6,CA,1684953112
151,kutum,14.2,24.6667,30.21,13,0,3.25,SD,1684953112
152,coahuayana de hidalgo,18.7,-103.6583,33.12,49,100,3.45,MX,1684953112
153,san jeronimo de juarez,17.1333,-100.4667,32.63,55,74,4.43,MX,1684953112
154,vernon,50.2581,-119.2691,18.95,62,23,1.03,CA,1684953112
155,warmbad,-28.45,18.7333,19.42,27,100,2.57,NA,1684953112
156,smithers,54.7804,-127.1743,16.18,48,40,3.09,CA,1684952924
157,sturgeon bay,44.8342,-87.377,14.2,35,0,5.14,US,1684953113
158,rahimah,26.7079,50.0619,35.12,55,100,1.44,SA,1684953113
159,macau,22.2006,113.5461,25.89,89,40,5.14,MO,1684953113
160,zhob,31.3411,69.4481,25.15,36,3,2.17,PK,1684953113
161,puerto aysen,-45.4,-72.7,7.02,76,100,0.0,CL,1684953113
162,kununurra,-15.7667,128.7333,12.99,94,44,0.0,AU,1684953113
163,avarua,-21.2078,-159.775,26.03,69,75,5.14,CK,1684953113
164,kalianget,-7.05,113.9333,26.7,78,5,4.56,ID,1684953113
165,puerto francisco de orellana,-0.4667,-76.9667,28.03,78,75,1.54,EC,1684953113
166,famagusta,35.125,33.95,23.0,84,96,2.33,CY,1684953113
167,san sebastian de la gomera,28.0916,-17.1133,21.32,60,20,3.09,ES,1684953113
168,kailua-kona,19.6406,-155.9956,26.82,74,0,2.06,US,1684953114
169,dawei,14.0833,98.2,26.22,87,100,1.39,MM,1684953114
170,palikir - national government center,6.9248,158.1611,27.41,83,100,2.06,FM,1684953114
171,erenhot,43.6475,111.9767,13.22,60,96,9.86,CN,1684953114
172,invercargill,-46.4,168.35,8.73,94,84,2.48,NZ,1684953114
173,huarmey,-10.0681,-78.1522,24.86,70,37,5.47,PE,1684953114
174,namibe,-15.1961,12.1522,20.96,77,2,5.89,AO,1684953114
175,turpan,42.9333,89.1667,26.07,16,100,0.93,CN,1684953114
176,pinotepa nacional,16.3167,-98.0167,35.26,39,15,4.61,MX,1684953114
177,rexburg,43.826,-111.7897,14.73,82,100,0.0,US,1684953115
178,polyarnyy,69.1989,33.4478,13.52,55,100,10.68,RU,1684953115
179,luderitz,-26.6481,15.1594,13.41,77,84,1.91,NA,1684953115
180,concepcion del oro,24.6333,-101.4167,25.11,27,28,1.21,MX,1684953115
181,yakeshi,49.2833,120.7333,13.3,78,100,0.71,CN,1684953115
182,west island,-12.1568,96.8225,27.99,78,40,5.14,CC,1684953115
183,luau,-10.7073,22.2247,21.5,52,43,0.79,AO,1684953115
184,minggang,32.4586,114.0486,15.92,89,0,1.73,CN,1684953115
185,abbeville,50.1,1.8333,16.94,89,100,3.4,FR,1684953115
186,gladstone,-23.85,151.25,14.32,82,0,3.6,AU,1684953085
187,san luis de la loma,17.2706,-100.8939,32.01,56,100,4.99,MX,1684953116
188,kerikeri,-35.2268,173.9474,10.6,95,15,2.07,NZ,1684953116
189,east london,-33.0153,27.9116,21.52,46,0,3.09,ZA,1684953116
190,tazovsky,67.4667,78.7,-1.05,92,0,1.24,RU,1684953116
191,cabedelo,-6.9811,-34.8339,29.37,77,9,3.42,BR,1684953116
192,whitehorse,60.7161,-135.0538,12.83,53,75,4.63,CA,1684952922
193,ruiz,21.95,-105.15,37.21,22,100,3.75,MX,1684953116
194,barakani,-12.1356,44.4317,25.56,72,5,3.52,KM,1684953116
195,qurayyat,31.3318,37.3428,27.1,10,0,3.6,SA,1684953116
196,callao,-12.0667,-77.15,25.16,61,0,6.17,PE,1684953116
197,gassol,8.5333,10.4667,31.43,52,100,2.13,NG,1684953117
198,constantia,44.1833,28.65,17.61,82,4,1.9,RO,1684953117
199,ixtapa,20.7,-105.2,29.57,54,40,5.14,MX,1684953117
200,beylikova,39.6869,31.2056,15.52,68,24,1.08,TR,1684953117
201,gadzhiyevo,69.2551,33.3362,13.49,55,100,10.99,RU,1684953117
202,port blair,11.6667,92.75,28.02,83,40,1.03,IN,1684953117
203,don luan,11.5333,106.9167,26.02,81,100,1.24,VN,1684953117
204,kodiak,57.79,-152.4072,6.73,93,100,3.09,US,1684952899
205,mwinilunga,-11.7358,24.4293,18.2,64,57,1.52,ZM,1684953117
206,vilyuchinsk,52.9306,158.4028,2.15,85,4,3.42,RU,1684953118
207,wladyslawowo,54.7909,18.4009,19.75,88,20,4.05,PL,1684953118
208,saint-pierre,-21.3393,55.4781,21.98,78,0,2.57,RE,1684952887
209,viedma,-40.8135,-62.9967,18.86,22,100,6.21,AR,1684953102
210,pakxan,18.3778,103.6601,24.79,91,100,0.72,LA,1684953118
211,hofors,60.5457,16.2867,20.45,53,100,4.33,SE,1684953118
212,iskitim,54.6366,83.3045,6.77,54,3,2.74,RU,1684953118
213,morropon,-5.1822,-79.9689,28.69,63,80,1.75,PE,1684953118
214,grand falls-windsor,48.9332,-55.6649,19.72,33,8,0.89,CA,1684953115
215,lower hutt,-41.2167,174.9167,8.95,96,12,4.12,NZ,1684953118
216,bam,29.106,58.357,31.22,15,19,2.89,IR,1684952893
217,surskoye,54.4821,46.7214,17.85,61,67,2.83,RU,1684953118
218,guankou,28.15,113.6333,18.89,94,99,1.35,CN,1684953118
219,al 'amarah,31.8406,47.1396,36.87,14,100,2.71,IQ,1684953119
220,norderney,53.7,7.15,12.77,78,1,5.68,DE,1684953119
221,kulhudhuffushi,6.6221,73.07,28.97,73,8,2.65,MV,1684953119
222,nguigmi,14.2495,13.1092,31.32,47,93,4.08,NE,1684953119
223,san pedro,14.35,121.0167,26.86,95,100,1.03,PH,1684953119
224,tafalla,42.5269,-1.6745,19.49,64,34,7.33,ES,1684952837
225,port sudan,19.6175,37.2164,30.12,73,10,3.14,SD,1684953119
226,arkhangel'sk,64.5401,40.5433,15.21,68,1,1.86,RU,1684953119
227,coyhaique,-45.5752,-72.0662,3.97,87,75,3.6,CL,1684953119
228,mersa matruh,31.3525,27.2453,21.11,73,40,3.6,EG,1684953119
229,la'ie,21.6477,-157.9253,26.98,75,27,3.13,US,1684953119
230,xining,36.6167,101.7667,8.88,67,100,1.59,CN,1684953119
231,shitanjing,39.2342,106.3439,14.16,36,100,9.97,CN,1684953120
232,nouadhibou,20.931,-17.0347,22.99,60,100,7.2,MR,1684953120
233,along,28.1667,94.7667,20.24,97,84,0.76,IN,1684953120
234,ponta delgada,37.7333,-25.6667,18.4,63,20,6.17,PT,1684953120
235,uzgen,40.7699,73.3007,16.16,68,94,2.98,KG,1684953120
236,kharp,66.8014,65.8081,11.66,68,0,2.16,RU,1684953120
237,middelharnis,51.7575,4.1653,15.56,66,51,2.24,NL,1684953084
238,bandon,51.7469,-8.7425,16.77,78,5,4.84,IE,1684953120
239,holualoa,19.6228,-155.9522,24.75,76,0,2.06,US,1684953041
240,ati,13.2154,18.3353,39.0,20,57,2.29,TD,1684953120
241,lompoc,34.6391,-120.4579,19.32,78,100,3.6,US,1684953089
242,ancud,-41.8697,-73.8203,9.88,79,100,8.68,CL,1684953121
243,aguazul,5.1728,-72.5471,30.07,70,98,0.97,CO,1684953121
244,malvan,16.0667,73.4667,28.25,77,19,2.99,IN,1684953121
245,rusera,25.75,86.0333,29.82,48,0,3.11,IN,1684953121
246,lexington,37.9887,-84.4777,27.19,34,0,3.6,US,1684952975
247,mordelles,48.0667,-1.85,19.08,55,0,7.72,FR,1684953121
248,kone,-21.0595,164.8658,16.86,77,12,2.25,NC,1684953010
249,chimoio,-19.1164,33.4833,20.92,88,20,1.3,MZ,1684953121
250,el limon,10.3059,-67.6321,33.62,63,86,1.21,VE,1684953122
251,thunder bay,48.4001,-89.3168,10.95,30,75,7.2,CA,1684953122
252,talnakh,69.4865,88.3972,-9.0,92,22,0.87,RU,1684953123
253,kargil,34.5667,76.1,4.49,73,100,2.9,IN,1684953123
254,camara de lobos,32.6333,-16.9667,20.4,85,75,0.89,PT,1684953123
255,minot,48.2325,-101.2963,27.12,47,0,10.29,US,1684953024
256,sinabang,2.4803,96.3801,26.68,82,65,1.25,ID,1684953124
257,praia da vitoria,38.7333,-27.0667,19.14,72,75,5.97,PT,1684953124
258,livingston,55.9029,-3.5226,17.11,61,20,5.14,GB,1684953110
259,manchester,53.4809,-2.2374,17.71,67,20,5.14,GB,1684953097
260,massawa,15.6097,39.45,31.75,74,3,1.46,ER,1684953124
261,port moresby,-9.4431,147.1797,23.68,94,75,5.14,PG,1684953125
262,pontianak,-0.0333,109.3333,25.99,100,100,1.03,ID,1684952843
263,bandarbeyla,9.4942,50.8122,27.97,77,64,9.41,SO,1684953125
264,queenstown,-31.8976,26.8753,13.66,27,100,3.37,ZA,1684953125
265,zaysan,47.4667,84.8667,13.81,40,0,4.12,KZ,1684953126
266,tres arroyos,-38.3739,-60.2798,20.3,66,100,3.29,AR,1684953126
267,kabare,-2.4683,28.8242,16.39,97,71,0.19,CD,1684953126
268,mahibadhoo,3.7833,72.9667,28.7,74,26,3.22,MV,1684953126
269,santana,-0.0583,-51.1817,30.1,79,75,3.09,BR,1684953127
270,matoury,4.8483,-52.3317,28.98,70,20,5.14,GF,1684953076
271,gdynia,54.5189,18.5319,19.81,73,0,4.12,PL,1684953127
272,pechora,65.1472,57.2244,15.5,65,52,3.63,RU,1684953127
273,kalna,23.2167,88.3667,27.87,83,42,1.56,IN,1684953128
274,karema,-6.8205,30.4389,24.61,73,31,0.59,TZ,1684953129
275,port lincoln,-34.7333,135.8667,15.58,81,100,7.25,AU,1684953130
276,lebu,-37.6167,-73.65,13.39,68,52,5.3,CL,1684953130
277,saint-philippe,-21.3585,55.7679,21.77,86,100,4.01,RE,1684953130
278,dakhla,23.6848,-15.958,21.01,64,9,9.26,EH,1684953131
279,megion,61.0296,76.1136,9.01,41,98,3.11,RU,1684953132
280,kimovsk,53.9716,38.5319,14.45,88,22,1.25,RU,1684953132
281,ta`u,-14.2336,-169.5144,26.88,79,100,1.58,AS,1684953132
282,vila velha,-20.3297,-40.2925,25.97,75,40,4.12,BR,1684953053
283,port pirie,-33.1833,138.0167,16.17,44,100,8.34,AU,1684953133
284,walvis bay,-22.9575,14.5053,13.94,88,45,1.03,NA,1684953133
285,stephenville,32.2207,-98.2023,26.07,66,75,2.57,US,1684953031
286,dunedin,-45.8742,170.5036,10.45,70,100,0.89,NZ,1684953006
287,chita,52.0333,113.55,6.94,56,32,4.0,RU,1684953134
288,hasaki,35.7333,140.8333,13.45,60,100,0.96,JP,1684953134
289,sandnessjoen,66.0217,12.6316,7.58,87,75,11.32,NO,1684953135
290,fuyang,32.9,115.8167,14.64,88,1,1.7,CN,1684953135
291,kuressaare,58.2481,22.5039,17.97,72,9,1.54,EE,1684953140
292,el porvenir,13.7617,-87.3458,33.63,44,90,3.23,HN,1684953140
293,belgrade,44.804,20.4651,20.81,79,20,2.57,RS,1684953141
294,khovd,48.0056,91.6419,9.54,54,89,1.64,MN,1684953141
295,son la,21.3167,103.9,21.27,96,100,0.97,VN,1684953141
296,al jawf,29.5,38.75,27.53,25,24,5.04,SA,1684953141
297,sidi akkacha,36.4647,1.3026,20.16,78,39,3.24,DZ,1684953142
298,mawu,29.5923,107.3139,18.86,84,95,1.71,CN,1684953143
299,carutapera,-1.195,-46.02,26.11,85,97,3.71,BR,1684953144
300,yaren,-0.5472,166.916,27.85,78,100,4.89,NR,1684953145
301,salahonda,2.1019,-78.7217,27.65,79,30,4.28,CO,1684953145
302,la ronge,55.1001,-105.2842,10.12,81,100,3.6,CA,1684953146
303,tynda,55.1667,124.7167,3.79,92,90,0.94,RU,1684953146
304,medicine hat,50.0501,-110.6683,15.24,67,100,5.66,CA,1684953146
305,harstad,68.799,16.5293,7.31,95,44,16.09,NO,1684953147
306,vorgashor,67.5833,63.95,9.32,77,1,3.47,RU,1684953147
307,freetown,8.484,-13.2299,29.84,79,40,6.17,SL,1684953147
308,thinadhoo,0.5333,72.9333,28.43,74,100,3.13,MV,1684953149
309,sabha,27.0377,14.4283,31.59,8,91,4.88,LY,1684953150
310,sechura,-5.5569,-80.8222,28.56,58,51,4.75,PE,1684953150
311,colonia,50.9333,6.95,14.97,61,0,3.09,DE,1684952882
312,flin flon,54.7682,-101.865,15.91,41,75,4.12,CA,1684953151
313,onega,63.9061,38.1404,14.64,64,0,2.0,RU,1684953152
314,vientiane,17.9667,102.6,28.91,79,34,1.68,LA,1684953023
315,kouango,4.9934,19.9619,26.81,62,62,1.08,CF,1684953152
316,at taj,24.2049,23.2857,31.02,10,99,5.81,LY,1684953152
317,petropavlovsk-kamchatsky,53.0452,158.6483,1.33,87,20,3.0,RU,1684953051
318,la passe,45.5549,-0.8967,21.13,67,100,7.12,FR,1684953153
319,muynoq,43.7683,59.0214,22.04,44,2,4.97,UZ,1684953153
320,kalmunai,7.4167,81.8167,26.96,81,2,3.63,LK,1684953153
321,ratnapura,6.6828,80.3992,24.75,95,9,0.64,LK,1684953154
322,betio village,1.358,172.9211,27.02,87,100,4.29,KI,1684953154
323,vilyuysk,63.7553,121.6247,1.67,61,93,1.99,RU,1684953155
324,broome,42.2506,-75.833,22.21,52,75,7.72,US,1684953155
325,arno,60.1167,18.6333,12.1,52,72,6.05,SE,1684953155
326,cabo san lucas,22.8909,-109.9124,33.17,25,40,6.69,MX,1684953155
327,bathsheba,13.2167,-59.5167,30.34,74,40,4.12,BB,1684953155
328,fale old settlement,-9.3852,-171.2468,27.17,78,60,2.22,TK,1684953156
329,formosa do rio preto,-11.0483,-45.1931,32.74,31,51,4.24,BR,1684953156
330,helena valley southeast,46.6153,-111.9216,19.88,56,20,3.09,US,1684953156
331,klyuchi,52.2667,79.1667,14.99,45,25,3.92,RU,1684953157
332,codrington,-38.2667,141.9667,14.45,49,100,8.41,AU,1684953157
333,karoi,-16.8099,29.6925,16.32,59,0,0.86,ZW,1684953157
334,aasiaat,68.7098,-52.8699,-0.13,74,67,4.46,GL,1684953158
335,piti village,13.4626,144.6933,26.49,94,100,14.92,GU,1684953158
336,val-d'or,48.1002,-77.7828,5.05,65,75,7.2,CA,1684952942
337,peterhead,57.5058,-1.7981,14.22,82,3,4.1,GB,1684953158
338,camacupa,-12.0167,17.4833,17.42,39,5,2.05,AO,1684953159
339,tommot,58.9564,126.2925,1.54,84,76,0.45,RU,1684953159
340,aioun,16.6614,-9.6149,37.9,14,93,5.4,MR,1684953160
341,bereznik,62.8551,42.7072,15.14,86,100,2.35,RU,1684953160
342,alice springs,-23.7,133.8833,4.75,70,0,2.0,AU,1684953161
343,inhambane,-23.865,35.3833,21.89,77,0,5.08,MZ,1684953161
344,barclayville,4.6797,-8.2339,26.59,88,100,2.98,LR,1684953161
345,kudymkar,59.0173,54.656,17.31,58,35,2.74,RU,1684953103
346,kotido,2.9806,34.1331,21.6,74,37,2.61,UG,1684953161
347,utrik,11.2278,169.8474,27.39,79,98,6.66,MH,1684953161
348,san antonio de pale,-1.4014,5.6325,26.95,85,100,3.0,GQ,1684953161
349,ingeniero guillermo n. juarez,-23.9,-61.85,30.96,42,92,6.95,AR,1684953161
350,kangding,30.0513,101.9603,12.21,84,99,1.83,CN,1684953162
351,axim,4.8699,-2.2405,26.84,86,100,3.08,GH,1684953162
352,dampit,-8.2116,112.7493,21.19,98,82,1.42,ID,1684953162
353,gamba,-2.65,10.0,25.47,92,100,2.32,GA,1684953162
354,manismata,-2.4667,111.0333,23.6,94,100,0.9,ID,1684953162
355,udachny,66.4167,112.4,1.36,80,96,4.83,RU,1684953162
356,nova vicosa,-17.8919,-39.3719,23.74,85,12,6.07,BR,1684953162
357,pailon,-17.65,-62.75,31.5,63,100,4.89,BO,1684953162
358,adamovka,51.5223,59.9396,17.62,41,6,2.58,RU,1684953163
359,hami,42.8,93.45,20.77,18,0,6.29,CN,1684953163
360,haisyn,48.8114,29.3898,16.72,86,70,2.15,UA,1684953163
361,chegdomyn,51.1167,133.0167,10.17,94,21,1.35,RU,1684953133
362,homer,59.6425,-151.5483,10.43,78,100,2.68,US,1684952880
363,haiku-pauwela,20.9219,-156.3051,25.02,67,20,7.72,US,1684953163
364,illizi,26.4833,8.4667,32.89,10,100,4.41,DZ,1684953163
365,maragogi,-9.0122,-35.2225,26.12,85,19,3.17,BR,1684953163
366,shingu,33.7333,135.9833,17.25,63,100,0.9,JP,1684953164
367,ciudad lazaro cardenas,17.9583,-102.2,30.88,58,100,4.35,MX,1684953164
368,progreso,21.2833,-89.6667,34.06,58,17,4.97,MX,1684952991
369,la sarre,48.8002,-79.1996,10.47,29,0,6.17,CA,1684953009
370,whakatane,-37.9585,176.9854,9.32,99,8,3.27,NZ,1684953164
371,sosnovo-ozerskoye,52.5249,111.5418,2.1,66,100,5.69,RU,1684953164
372,lubao,14.9167,120.55,27.04,85,95,0.61,PH,1684953164
373,tindouf,27.6711,-8.1474,28.25,17,0,9.77,DZ,1684953164
374,alesund,62.4723,6.1549,10.08,69,40,11.83,NO,1684952935
375,tabou,4.423,-7.3528,26.98,87,100,4.05,CI,1684953165
376,les cayes,18.2,-73.75,29.45,67,36,4.88,HT,1684953165
377,ust'-kut,56.7938,105.7672,2.56,91,100,2.66,RU,1684953165
378,abong mbang,3.9833,13.1833,23.63,84,96,1.77,CM,1684953165
379,badger,64.8,-147.5333,16.67,47,75,1.03,US,1684953165
380,vila franca do campo,37.7167,-25.4333,18.23,74,62,3.55,PT,1684953165
381,punta del este,-34.9667,-54.95,22.06,82,0,1.34,UY,1684953002
382,maunabo,18.0072,-65.8993,30.92,82,7,3.25,PR,1684953038
383,hanzhong,33.0728,107.0303,15.64,92,100,0.48,CN,1684953165
384,pudozh,61.8099,36.5345,15.06,86,100,0.49,RU,1684953166
385,marsabit,2.3284,37.9899,21.66,54,74,6.47,KE,1684953166
386,topolobampo,25.6,-109.05,32.95,29,75,3.6,MX,1684953166
387,oranjemund,-28.55,16.4333,12.85,85,100,1.27,NA,1684953171
388,chul'man,56.8479,124.9104,-1.13,93,8,0.62,RU,1684953171
389,pesaro,43.9036,12.8903,22.19,77,99,0.89,IT,1684953171
390,nampula,-15.1165,39.2666,20.97,83,0,3.09,MZ,1684953171
391,bubaque,11.2833,-15.8333,27.89,73,100,7.08,GW,1684953171
392,raduzhny,62.0961,77.475,7.41,55,100,3.66,RU,1684953172
393,arica,-18.475,-70.3042,23.75,68,75,5.66,CL,1684953095
394,kuraymah,18.55,31.85,37.86,11,23,3.71,SD,1684953172
395,boca do acre,-8.7522,-67.3978,24.57,94,100,1.59,BR,1684953172
396,carauari,-4.8828,-66.8958,26.63,93,98,1.45,BR,1684952998
397,fort bragg,35.139,-79.006,26.08,26,0,5.14,US,1684953172
398,touros,-5.1989,-35.4608,27.93,70,50,4.58,BR,1684953162
399,kondoa,-4.9,35.7833,16.62,76,22,1.91,TZ,1684953172
400,mount pearl,47.5166,-52.7813,10.81,78,20,3.09,CA,1684953172
401,south daytona,29.1658,-81.0045,26.72,88,75,6.69,US,1684953172
402,pangai,-19.8,-174.35,24.06,78,40,0.0,TO,1684953172
403,taltal,-25.4,-70.4833,19.9,68,24,2.44,CL,1684953172
404,sorong,-0.8833,131.25,26.23,89,60,4.15,ID,1684953173
405,acarau,-2.8856,-40.12,28.0,78,68,6.06,BR,1684953084
406,oltinko'l,40.8011,72.1634,22.63,31,0,1.76,UZ,1684953173
407,pacific grove,36.6177,-121.9166,15.01,77,100,3.13,US,1684953036
408,wotho,10.1657,166.0102,27.76,79,100,7.0,MH,1684953173
409,necochea,-38.5473,-58.7368,19.64,73,100,1.46,AR,1684953173
410,niafunke,15.9322,-3.9906,38.38,12,6,3.88,ML,1684953173
411,happy valley-goose bay,53.3168,-60.3315,9.17,81,100,2.57,CA,1684953173
412,egilsstadir,65.2653,-14.3948,7.95,36,75,9.77,IS,1684953173
413,qamdo,31.1667,97.2333,3.76,39,0,2.28,CN,1684953173
414,nuuk,64.1835,-51.7216,5.34,52,75,2.57,GL,1684953044
415,el alto,-4.2714,-81.2147,29.81,69,69,6.45,PE,1684953173
416,mount isa,-20.7333,139.5,11.87,62,0,0.51,AU,1684953174
417,soligalich,59.0778,42.2864,14.98,96,10,1.82,RU,1684953174
418,chernyshevskiy,63.0128,112.4714,2.15,95,69,4.7,RU,1684953174
419,ulladulla,-35.35,150.4667,13.16,48,38,3.97,AU,1684953174
420,calca,-13.3333,-71.95,20.64,59,94,2.38,PE,1684953174
421,rehoboth,-23.3167,17.0833,18.91,34,100,4.73,NA,1684953174
422,beira,-19.8436,34.8389,25.05,100,20,5.14,MZ,1684953174
423,reggane,26.7158,0.1714,30.56,11,100,4.89,DZ,1684953174
424,north bay,46.3168,-79.4663,9.41,52,20,7.2,CA,1684953076
425,poronaysk,49.2167,143.1167,7.68,80,85,0.93,RU,1684953174
426,eureka,40.8021,-124.1637,15.9,75,7,2.24,US,1684953174
427,kaspiyskiy,45.3929,47.3707,21.93,64,76,2.52,RU,1684953175
428,al ghayzah,16.2079,52.176,29.46,72,5,5.89,YE,1684953175
429,sonoita,31.85,-112.8333,31.7,14,0,8.37,MX,1684953175
430,rio gallegos,-51.6226,-69.2181,6.03,65,0,4.12,AR,1684952880
431,taulaga,-11.0553,-171.0883,27.49,70,60,2.08,AS,1684953175
432,floro,61.5996,5.0328,10.68,81,40,10.29,NO,1684953175
433,alo,7.4178,6.7371,29.26,68,87,1.2,NG,1684953175
434,mil'kovo,55.6078,37.7956,19.22,92,0,1.67,RU,1684953175
435,akbarabad,29.2464,52.7793,25.79,21,89,1.88,IR,1684953175
436,peniche,39.3558,-9.3811,25.04,77,66,4.77,PT,1684953175
437,hansot,21.5833,72.8,29.73,72,0,7.13,IN,1684953175
438,khanty-mansiysk,61.0042,69.0019,12.06,100,20,0.0,RU,1684953175
439,kiunga,-6.1219,141.2906,22.0,99,99,0.89,PG,1684953176
440,tremonton,41.7119,-112.1655,23.99,60,0,2.68,US,1684953176
441,sorochinsk,52.4338,53.1583,18.55,49,0,3.76,RU,1684953176
442,fort st. john,56.2499,-120.8529,13.94,72,75,4.12,CA,1684953176
443,tallahassee,30.4383,-84.2807,26.91,73,75,5.66,US,1684953123
444,guerrero negro,27.9769,-114.0611,19.89,55,17,5.91,MX,1684953176
445,sinop,41.7711,34.8709,12.13,92,100,0.96,TR,1684953176
446,jinchang,38.4953,102.1739,12.96,28,98,3.7,CN,1684953176
447,beloyarskiy,63.7119,66.6722,10.97,82,42,2.08,RU,1684953176
448,voi,-3.3945,38.563,21.7,82,0,2.99,KE,1684953176
449,rongelap,11.1635,166.8941,27.64,78,100,6.96,MH,1684953176
450,calliope,-24.0,151.2,13.72,82,0,3.6,AU,1684953176
451,tecolotlan,20.2167,-104.05,33.45,18,100,2.38,MX,1684953176
452,berezovyy,51.6667,135.7,8.43,95,96,1.37,RU,1684953177
453,galesong,-5.3166,119.3661,25.01,82,54,1.97,ID,1684953177
454,el nido,11.1858,119.3956,27.79,78,69,2.36,PH,1684953177
455,puerto lempira,15.2667,-83.7667,32.08,62,20,5.14,HN,1684953177
456,sa'dah,16.9402,43.7639,20.32,52,11,0.99,YE,1684953177
457,nar'yan-mar,67.6713,53.087,13.93,90,18,4.74,RU,1684953177
458,xinqing,48.2333,129.5,17.31,46,88,4.32,CN,1684953177
459,tokmak,47.2514,35.7058,16.41,95,100,2.92,UA,1684953177
460,kenai,60.5544,-151.2583,9.05,85,100,5.66,US,1684953080
461,saynshand,44.8824,110.1163,11.77,57,100,7.41,MN,1684953177
462,cukai,4.25,103.4167,27.97,88,73,2.23,MY,1684953177
463,onokhoy,51.932,108.0747,1.86,90,100,2.05,RU,1684953177
464,bafq,31.6128,55.4107,31.06,14,79,3.45,IR,1684953178
465,suva,-18.1416,178.4415,21.71,94,75,2.57,FJ,1684953178
466,lishui,28.4604,119.9103,15.4,93,9,0.35,CN,1684953178
467,cambria,35.5641,-121.0808,15.84,81,37,2.68,US,1684953178
468,palpala,-24.2565,-65.2116,25.57,54,20,3.6,AR,1684953178
469,belmonte,-15.8631,-38.8828,26.52,68,40,3.34,BR,1684952938
470,abay,49.6311,72.8539,9.21,41,6,2.6,KZ,1684953178
471,anamur,36.0751,32.8369,20.35,73,0,3.04,TR,1684953178
472,huicheng,23.0385,116.2899,22.44,94,43,2.25,CN,1684953178
473,taupo,-38.6833,176.0833,6.83,86,90,0.72,NZ,1684953178
474,plettenberg bay,-34.0527,23.3716,16.09,63,71,2.6,ZA,1684953178
475,canico,32.6333,-16.85,20.4,84,75,0.0,PT,1684953178
476,hammerfest,70.6634,23.6821,6.25,81,40,3.09,NO,1684953178
477,sassandra,4.95,-6.0833,27.13,85,99,2.93,CI,1684953179
478,coquimbo,-29.9533,-71.3436,18.85,68,0,5.14,CL,1684953116
479,azna,33.6095,48.9307,20.29,34,100,2.74,IR,1684953179
480,nagar karnul,16.4821,78.3247,32.84,34,100,4.12,IN,1684953179
481,lai chau,22.3997,103.4517,21.71,90,92,1.02,VN,1684953179
482,fallon,39.4735,-118.7774,22.73,41,40,3.09,US,1684953179
483,kargasok,59.0556,80.8572,7.36,50,100,2.68,RU,1684953179
484,tondano,1.3038,124.9112,21.05,92,96,0.7,ID,1684953179
485,villamontes,-21.25,-63.5,30.69,55,40,5.14,BO,1684953179
486,tra vinh,9.9347,106.3453,26.65,83,99,2.16,VN,1684953179
487,gamboma,-1.8764,15.8644,25.64,77,99,1.72,CG,1684953179
488,tianshui,34.5439,105.6897,15.0,79,100,0.24,CN,1684953180
489,san fernando de apure,7.8878,-67.4724,31.87,62,65,1.22,VE,1684953180
490,valladolid,41.5833,-4.6667,19.91,58,94,1.34,ES,1684952927
491,linqu,36.5156,118.5397,13.69,64,14,3.27,CN,1684953180
492,vizinga,61.0749,50.1031,16.52,63,80,1.99,RU,1684953180
493,urangan,-25.3,152.9,16.72,79,0,4.58,AU,1684953180
494,carnarvon,-24.8667,113.6333,19.52,79,99,8.03,AU,1684953180
495,forbes,-33.3833,148.0167,6.31,55,84,3.07,AU,1684953180
496,lepsy,46.235,78.9456,17.84,27,94,1.66,KZ,1684953180
497,wuwei,37.9281,102.6414,12.49,35,100,3.2,CN,1684953180
498,novoishimskiy,53.1981,66.7694,17.05,41,1,3.16,KZ,1684953181
499,cherepanovo,54.2222,83.381,6.16,54,0,3.44,RU,1684953138
500,santa barbara,34.7333,-120.0343,15.55,70,100,1.54,US,1684953181
501,santarem,-2.4431,-54.7083,32.07,74,40,4.63,BR,1684953042
502,lillehammer,61.1146,10.4674,11.61,56,59,4.14,NO,1684953186
503,amga,60.8953,131.9608,1.55,89,7,0.37,RU,1684953186
504,noshiro,40.2039,140.0242,8.29,91,0,2.35,JP,1684953186
505,belyy yar,53.6039,91.3903,2.94,52,0,2.0,RU,1684953187
506,ad douiem,14.0012,32.3116,35.21,10,4,1.96,SD,1684953187
507,zhaotong,27.3167,103.7167,15.36,89,100,2.14,CN,1684953188
508,mahbubnagar,16.7333,77.9833,33.07,31,99,4.56,IN,1684953079
509,bengkulu,-3.8004,102.2655,24.5,91,16,1.68,ID,1684953189
510,igarka,67.4667,86.5833,-2.04,94,18,3.67,RU,1684953189
511,teguise,29.0605,-13.564,20.12,56,40,4.63,ES,1684953190
512,djambala,-2.5447,14.7533,23.99,70,100,1.05,CG,1684953190
513,chibougamau,49.9168,-74.3659,3.79,70,100,5.66,CA,1684953191
514,taoudenni,22.6783,-3.9836,29.26,28,100,8.41,ML,1684953191
515,ferkessedougou,9.6,-5.2,29.38,62,96,0.7,CI,1684953191
516,utete,-7.986,38.758,21.36,93,99,1.71,TZ,1684953192
517,tweed heads,-28.1817,153.547,11.67,100,0,1.54,AU,1684953192
518,motueka,-41.1333,173.0167,7.28,87,3,1.87,NZ,1684953193
519,cockburn town,21.4612,-71.1419,27.73,72,12,1.69,TC,1684952940
520,sitangkai,4.6628,119.3928,29.09,70,100,3.91,PH,1684953193
521,severobaykal'sk,55.65,109.3167,-2.74,91,11,1.95,RU,1684953194
522,hithadhoo,-0.6,73.0833,28.35,74,100,3.57,MV,1684953195
523,brookings,44.3114,-96.7984,28.03,36,40,5.14,US,1684953195
524,forster,-32.1667,152.5167,10.6,56,69,2.77,AU,1684953196
525,pont rouge,48.8833,-72.0825,10.06,57,100,6.36,CA,1684953196
526,lorengau,-2.0226,147.2712,26.01,88,100,5.14,PG,1684953196
527,roma,43.2128,-75.4557,13.18,85,100,2.06,US,1684953171
528,kinkala,-4.3614,14.7644,23.9,85,51,1.04,CG,1684953197
529,lhokseumawe,5.1801,97.1507,26.65,86,100,2.84,ID,1684953197
530,sitka,57.0531,-135.33,8.94,93,100,0.0,US,1684953197
531,bonthe,7.5264,-12.505,28.41,78,100,2.4,SL,1684953197
532,kyshtovka,56.555,76.6271,10.15,44,100,2.88,RU,1684953197
533,nadi,-17.8,177.4167,22.0,78,40,3.09,FJ,1684953198
534,roses,42.262,3.1769,22.4,67,4,0.89,ES,1684953198
535,ibicui,-14.8417,-39.9867,25.39,59,76,2.2,BR,1684953198
536,nong phai,15.9903,101.0618,26.1,81,86,0.45,TH,1684953199
537,sittwe,20.15,92.9,28.49,76,75,3.09,MM,1684953200
538,prince rupert,54.3161,-130.3201,12.05,77,100,2.57,CA,1684953041
539,nyagan,62.1406,65.3936,12.17,87,0,1.3,RU,1684953131
540,masterton,-40.9597,175.6575,5.01,96,5,1.05,NZ,1684953201
541,ampanihy,-24.7,44.75,15.91,66,60,2.85,MG,1684953202
542,las palmas,28.4204,-14.0131,21.44,49,40,6.69,ES,1684953202
543,bhamo,24.2667,97.2333,21.84,97,81,1.16,MM,1684953203
544,turkmenbasy,40.0222,52.9552,24.43,38,0,3.09,TM,1684953203
545,kencong,-8.2833,113.3667,23.49,92,42,1.49,ID,1684953203
546,droichead nua,53.1819,-6.7967,15.38,84,100,3.02,IE,1684953203
547,moncton,46.1159,-64.8019,21.85,23,40,6.17,CA,1684953101
548,ghat,24.9647,10.1728,33.3,12,100,2.73,LY,1684953204
549,siwa oasis,29.2041,25.5195,29.53,23,53,3.74,EG,1684953204
550,domna,51.8971,113.1573,8.09,56,69,4.0,RU,1684953204
551,rawson,-43.3002,-65.1023,16.52,21,100,9.76,AR,1684953205
552,luwuk,-0.9516,122.7875,25.2,86,100,2.29,ID,1684953205
553,nizhnesortymskiy,62.4397,71.7603,11.61,51,100,3.83,RU,1684953205
554,praia,14.9215,-23.5087,26.3,61,0,9.26,CV,1684953205
555,revda,56.801,59.9303,15.26,53,15,1.12,RU,1684953206
556,inarajan village,13.2736,144.7484,26.54,91,100,24.04,GU,1684953206
557,karratha,-20.7377,116.8463,19.92,35,2,3.17,AU,1684953206
558,haapsalu,58.9431,23.5414,13.49,75,27,2.08,EE,1684952954
559,nagqu,31.5,92.0,1.99,61,100,2.1,CN,1684953206
560,pontevedra,42.431,-8.6444,24.3,62,94,1.21,ES,1684953180
561,medias,46.1667,24.35,19.92,86,92,0.99,RO,1684953207
562,balikpapan,-1.2675,116.8289,24.55,94,20,1.54,ID,1684953207
